[
  {
    "id": "range-008",
    "region": "서울특별시",
    "name": "화랑정",
    "address": "노원구 화랑로 574 사서함 77호",
    "query": "서울특별시 노원구 화랑로",
    "matchedName": "서울 노원구 화랑로",
    "matchedAddress": "서울 노원구 화랑로",
    "latitude": 37.623667879153,
    "longitude": 127.090607080004
  },
  {
    "id": "range-015",
    "region": "대구광역시",
    "name": "학산정",
    "address": "달서구 학산로 104-47 (배수지내)",
    "query": "대구광역시 달서구 학산로",
    "matchedName": "대구 달서구 학산로",
    "matchedAddress": "대구 달서구 학산로",
    "latitude": 35.8336587165493,
    "longitude": 128.540370904357
  },
  {
    "id": "range-038",
    "region": "대전광역시",
    "name": "주몽정",
    "address": "유성구 유성우체국 사서함 35",
    "query": "대전광역시 유성구 유성우체국",
    "matchedName": "대전유성우체국",
    "matchedAddress": "대전 유성구 봉명동 537-8",
    "latitude": 36.355657840806245,
    "longitude": 127.34365352593129
  },
  {
    "id": "range-048",
    "region": "세종특별자치시",
    "name": "고등정",
    "address": "소정면 고등삼기길 12",
    "query": "세종특별자치시 소정면",
    "matchedName": "세종특별자치시 소정면",
    "matchedAddress": "세종특별자치시 소정면",
    "latitude": 36.7223426518509,
    "longitude": 127.158295280854
  },
  {
    "id": "range-122",
    "region": "경기도",
    "name": "숭무정",
    "address": "이천시 장호원읍 경충대로 597번길 57-82 사서함 900-88",
    "query": "경기도 이천시 장호원읍 경충대로 597번길",
    "matchedName": "경기 이천시 장호원읍 경충대로597번길",
    "matchedAddress": "경기 이천시 장호원읍 경충대로597번길",
    "latitude": 37.157029592415,
    "longitude": 127.574228725496
  },
  {
    "id": "range-132",
    "region": "경기도",
    "name": "법화정",
    "address": "안산시 단원구 안산천남로 211번지 108-1306",
    "query": "경기도 안산시 단원구 안산천남로 211번지",
    "matchedName": "경기 안산시 단원구 안산천남로 211",
    "matchedAddress": "경기 안산시 단원구 안산천남로 211",
    "latitude": 37.3083666992547,
    "longitude": 126.840071552036
  },
  {
    "id": "range-162",
    "region": "강원도",
    "name": "웅비정",
    "address": "원주시 소초면 북원로 3223 사서함 323-13호",
    "query": "강원도 원주시 소초면 북원로",
    "matchedName": "강원특별자치도 원주시 소초면 북원로",
    "matchedAddress": "강원특별자치도 원주시 소초면 북원로",
    "latitude": 37.3096290414189,
    "longitude": 127.916656296317
  },
  {
    "id": "range-185",
    "region": "충청북도",
    "name": "충현정",
    "address": "청주시 상당구 가덕면 상야1길 406-60",
    "query": "충청북도 청주시 상당구 가덕면 상야1길",
    "matchedName": "충북 청주시 상당구 가덕면 상야1길",
    "matchedAddress": "충북 청주시 상당구 가덕면 상야1길",
    "latitude": 36.5956767863899,
    "longitude": 127.562372158656
  },
  {
    "id": "range-186",
    "region": "충청북도",
    "name": "중원정",
    "address": "충주시 금가면 보라매로 162-11 사서함 383-15",
    "query": "충청북도 충주시 금가면 보라매로",
    "matchedName": "충북 충주시 금가면 보라매로",
    "matchedAddress": "충북 충주시 금가면 보라매로",
    "latitude": 37.0283497531954,
    "longitude": 127.914546513004
  },
  {
    "id": "range-187",
    "region": "충청북도",
    "name": "성무정",
    "address": "청주시 상당구 남일면 단재로 635 사서함 335-2",
    "query": "충청북도 청주시 상당구 남일면 단재로",
    "matchedName": "충북 청주시 상당구 남일면 단재로",
    "matchedAddress": "충북 청주시 상당구 남일면 단재로",
    "latitude": 36.5842791625257,
    "longitude": 127.588982735017
  },
  {
    "id": "range-366",
    "region": "경상남도",
    "name": "비성충의정",
    "address": "진주시 금산면 송백로 46 사서함306-34",
    "query": "경상남도 진주시 금산면 송백로 46",
    "matchedName": "공군교육사령부 제2정문",
    "matchedAddress": "경남 진주시 금산면 송백리 2",
    "latitude": 35.2048806134285,
    "longitude": 128.150037016052
  }
]
